{"General":{"phoneNumber":"380661696720","name":"–î–∞—Ä—å—è –®–æ–ª–∫–∏–Ω–∞","userPhotoLink":"https://media-direct.cdn.viber.com/download_photo?dlid=0-03-05-8bcc783849d2609f4ce0f638590dddfe6763b000d9cca7c2dc3d7318b46998fa&fltp=jpg&imsz=0000","dob":"2000-11-14","devices":[{"os":"10","version":"15.7.0.5","mcc":"255","mnc":"3","deviceType":"Android","osName":"Android","osVersion":"10","osLanguage":"ru-RU","viberLanguage":"ru-RU","systemName":"Mi 9 SE","firstActivationTime":"2019-08-28T13:45:52-0400","lastActivationTime":"2019-08-28T13:45:52-0400","lastLoginTime":"2021-07-20T22:21:29-0400","lastIpAddress":"37.229.86.221","lastWifiIpAddress":"37.229.86.221","lastCountry":"UA","lastRegion":"21","lastCity":"Uzhhorod"},{"os":"NT10.0","version":"15.7.0","mcc":"0","mnc":"0","deviceType":"Windows PC","osName":"Windows","osVersion":"NT10.0","osLanguage":"en","systemName":"Desktop","firstActivationTime":"2021-07-12T09:19:24-0400","lastActivationTime":"2021-07-12T09:19:24-0400","lastLoginTime":"2021-07-20T14:36:09-0400","lastIpAddress":"37.229.86.221","lastWifiIpAddress":null,"lastCountry":"UA","lastRegion":"21","lastCity":"Uzhhorod"}],"addressBook":[{"phoneNumber":"380968977689","name":"–¢–∞–Ω—è –í–∏–∫–∏–Ω–≥"},{"phoneNumber":"380507822624","name":"–ô–æ—Ä–¥–∞–Ω –ù–∞—Ç–∞—à–∞"},{"phoneNumber":"380994093744","name":"–°–∞—à–∞ –≤–Ω—É–∫ —Ç—ë—Ç–∏ –ú–æ—Ä–∏–∫–∏"},{"phoneNumber":"380503726574","name":"–û–∫—Å–∞–Ω–∞ –í–∞—Å–∏–ª—ñ–≤–Ω–∞ –ö—É–ø–∞–ª—å–Ω–∏–∫"},{"phoneNumber":"380954516616","name":"–ï–≤–∞ –ô–æ–∂–µ—Ñ–æ–≤–Ω–∞ 2"},{"phoneNumber":"380509754510","name":"–ê–Ω—è –ë–∏–∫–∞–¥–æ—Ä–æ–≤–∞"},{"phoneNumber":"380689295215","name":"–°–∞—à–∞(–∫–≤–∞—Ä)"},{"phoneNumber":"380669700757","name":"–§—Ä—É–∂–∏–Ω–∞"},{"phoneNumber":"380664840403","name":"–ú–∞–º–∞ –ù–∞—Ç–∞—à–∏"},{"phoneNumber":"380980523906","name":"–ü–∞–≤–ª—é–∫"},{"phoneNumber":"380506309121","name":"–î—è–¥—è –í–∞–Ω—è –®–µ–±–∞"},{"phoneNumber":"380989947682","name":"–¢–µ–≥–∑–∞ –Ø–Ω–∞"},{"phoneNumber":"380990946528","name":"Korobova Liliana"},{"phoneNumber":"380997577045","name":"–°–≤–µ—Ç–ª–∞–Ω–∞ –ó–∞–ª"},{"phoneNumber":"380684793288","name":"–ë–∞–±—É—à–∫–∞ –ö–∞–ª—ã–Ω—ã—á"},{"phoneNumber":"380973711092","name":"–í–∞–Ω—è –±—Ä–∞—Ç –ú–∏—à–∏ –®–∞—Ö–∞–π–¥–∏"},{"phoneNumber":"380665523256","name":"–ñ–µ–Ω—è"},{"phoneNumber":"380955622271","name":"–ñ–µ–Ω—å–∫–∞"},{"phoneNumber":"380501200000","name":"Posluga ¬´Holosova poshta¬ª"},{"phoneNumber":"380990025565","name":"–¢—ñ–±–µ—Ä—ñ–π –®—é—Ç—ñ–≤"},{"phoneNumber":"380509587380","name":"–ú–∞–º–∞ –ê–Ω–∏—Ç—ã"},{"phoneNumber":"380663536428","name":"–¢–∞–Ω—è –ö—É–±"},{"phoneNumber":"380688440256","name":"–†–µ–º–æ–Ω—Ç"},{"phoneNumber":"380973727304","name":"–ê–Ω–≥–µ–ª—ñ–Ω–∞ –ù–µ–π–º–µ—Ç"},{"phoneNumber":"380667178812","name":"–ê—Ä—Ç—É—Ä –ò–≤–∞–Ω–æ–≤–∏—á –ö–∞—á—É—Ä"},{"phoneNumber":"380956583103","name":"–¢–∞–Ω—è –í–ª–∞–¥–∏–º–∏—Ä—Ü–µ–≤–∞"},{"phoneNumber":"380508789117","name":"–ê–Ω–Ω–∞ –Æ—Ä–∏–µ–≤–Ω–∞"},{"phoneNumber":"79129443040","name":"–°–µ—Ä–≥–µ–π –°—É—Ö–æ—Ç—å–∫–æ"},{"phoneNumber":"380990275392","name":"–ú–∞–º–∞ –ê–Ω–∏ –ü–æ–ø–æ–≤–∏—á"},{"phoneNumber":"380952490500","name":"BOSS"},{"phoneNumber":"380987645514","name":"–¢–∞–Ω—é—à–∫–∞"},{"phoneNumber":"380669367811","name":"–î–∏–∞–Ω–∞ –ú–∞—Ä—Ç–æ–Ω"},{"phoneNumber":"380687226705","name":"–ê–Ω–¥—Ä—ñ–π –ì–ª—É—à–∫–æ"},{"phoneNumber":"380664367512","name":"D√°n J√°nos"},{"phoneNumber":"79121096055","name":"–¢—ë—Ç—è –ù–∞—Ç–∞—à–∞"},{"phoneNumber":"380987349916","name":"–í–∏—Ç—è –ê–Ω—Ç–æ–Ω—è"},{"phoneNumber":"79679888448","name":"–ê–Ω—è –°–∞–≤–µ–ª—å–µ–≤–∞"},{"phoneNumber":"380504323114","name":"–¢—ë—Ç—è –ê–Ω—è"},{"phoneNumber":"380662339296","name":"–ô–æ—Ä–¥–∞–Ω"},{"phoneNumber":"380664345186","name":"Irina –ë–∞–±—É—à–∫–∞ –ê–Ω–∏"},{"phoneNumber":"380506744941","name":"–õ—é–±—á–∏–∫"},{"phoneNumber":"380951369765","name":"–ë–æ–≥–¥–∞–Ω –†–µ–ø–ª—é–∫"},{"phoneNumber":"380995608898","name":"–í–ª–∞–¥–∞"},{"phoneNumber":"380503913051","name":"–ü–∞–ø–∞ –ö–æ—Ç–∏"},{"phoneNumber":"380950362510","name":"–ï–≤–µ–ª–∏–Ω–∞ (—Ä–∞–±–æ—Ç–∞)"},{"phoneNumber":"380956445453","name":"–ê–ª–µ–∫—Å–∞–Ω–¥—Ä–∞ –ü–∞–ø–∞ –ù–∞—Å—Ç–∏"},{"phoneNumber":"380980116287","name":"–ö–æ—Ç—è"},{"phoneNumber":"380960443600","name":"–ü–æ–ª–∏–Ω–∞"},{"phoneNumber":"380955885964","name":"–Ø—Ä–æ—Å–ª–∞–≤–∞ –†–∞–±–æ—Ç–∞"},{"phoneNumber":"380502976335","name":"–°—Ç—ë–ø–∞"},{"phoneNumber":"380992675232","name":"–ú–∞—Ç–≤–µ–π"},{"phoneNumber":"380999019051","name":"–õ—é–¥–∞"},{"phoneNumber":"380957046054","name":"–ò–Ω–¥–∏"},{"phoneNumber":"380995589908","name":"–ò–≥–æ—Ä—å"},{"phoneNumber":"380507179418","name":"–ú–∞—Ä–∏–Ω–∞ –ö–æ—Å—Ç–µ–ª–µ–π"},{"phoneNumber":"380506537700","name":"–í–ª–∞–¥–∏–º–∏—Ä"},{"phoneNumber":"380976890936","name":"–ñ–µ–Ω—è –õ—è—Ö"},{"phoneNumber":"380978349918","name":"–ú–∞—Ç–≤–µ–π"},{"phoneNumber":"380965175151","name":"–°—É—à–∏ –ó—É–º"},{"phoneNumber":"380983998959","name":"Karinaüçë"},{"phoneNumber":"380667498501","name":"–õ–∏–∑–∞"},{"phoneNumber":"380509213024","name":"–û–º–µ–ª—å—è–Ω—ñ–≤–Ω–∞"},{"phoneNumber":"380662668727","name":"Nastya –®–∏—à–∫–∞"},{"phoneNumber":"380312654777","name":"–í–æ–¥–æ–ª–µ–π"},{"phoneNumber":"380987268103","name":"–ê–Ω–¥—Ä—ñ–∞–Ω–∞"},{"phoneNumber":"380667933305","name":"3 –ö—É—Ä—Å –ë–∞–ª–µ—Ç–∫–∏"},{"phoneNumber":"380997825277","name":"–û–ª–µ–Ω—å"},{"phoneNumber":"380665144315","name":"–ê–ª–ª–∞ (–ú–∞–º–∞ –î–∏–∞–Ω—ã)"},{"phoneNumber":"380992951175","name":"–ù–∞—Ç–∞—à–∞"},{"phoneNumber":"380989206327","name":"–ê–Ω–¥—Ä–∏–∞–Ω–∞"},{"phoneNumber":"380999434020","name":"–ù–∏–∫–∞ –ü—Ä–µ–±—É—à"},{"phoneNumber":"380661138367","name":"–õ—é–±–∏–º—ã–π üíñ"},{"phoneNumber":"380997582775","name":"–¢–∞–∫—Å–∞ –ü—Ä–µ—Å—Ç–∏–∂"},{"phoneNumber":"380991315567","name":"–ö—Ä–∏—Å—Ç–∏–Ω–∞ –¢–æ–ø–æ—Ä–∫–æ–≤–∞"},{"phoneNumber":"380680266952","name":"–ö–≤–∞—Ä—Ç–∏—Ä–∞–Ω—Ç–∫–∞ –í–∞–ª—è"},{"phoneNumber":"380954890991","name":"–°—É—Ö–∞—Ä—å –ö–∞—Ä–∏–Ω–∞"},{"phoneNumber":"380990290312","name":"–ê–ª–µ–∫—Å–µ–π –î—ë–º–∏–Ω"},{"phoneNumber":"380687763272","name":"–ì–ª—É—à–∫–æ 2"},{"phoneNumber":"380732177638","name":"–ù–∞—Å—Ç—è –û–≥–∞–Ω–µ—Å—è–Ω"},{"phoneNumber":"79164498325","name":"–ö–∏—Ä–∏–ª–ª –ê–Ω–¥—Ä–æ–Ω–æ–≤"},{"phoneNumber":"380682498619","name":"–û—á–∫–∞–Ω"},{"phoneNumber":"380662790231","name":"–ê–Ω–Ω–∞ –í–∞–ª–µ—Ä–∏–µ–≤–Ω–∞"},{"phoneNumber":"380665327402","name":"Karinaüëë"},{"phoneNumber":"380663777192","name":"–ú–∞—Ä–∏–Ω–∞ –ù–∏–∫–æ–ª–∞–µ–≤–Ω–∞"},{"phoneNumber":"380661104426","name":"–ê–Ω–Ω–∞ –ì—Ä–∏–≥–æ—Ä—å–µ–≤–Ω–∞"},{"phoneNumber":"380956635127","name":"–ú–∞–≥–∞–∑–∏–Ω"},{"phoneNumber":"380996506119","name":"–î—è–¥—è –õ–æ–π—á–∏"},{"phoneNumber":"380663080315","name":"–ú–∞—à–∞ –º–∞–ª–µ–Ω—å–∫–∞—è"},{"phoneNumber":"380990292026","name":"–ö–∞—Ç—è"},{"phoneNumber":"380663550495","name":"–≤–µ—Ä–æ–Ω–∏–∫–∞ –≤–∏–∫—Ç–æ—Ä–æ–≤–Ω–∞"},{"phoneNumber":"380958903052","name":"–í–∏–∫–∞ –Æ—Ä—á–µ–Ω–∫–æ"},{"phoneNumber":"380503912938","name":"–ú–∞–º–∞ –ö–æ—Ç–∏"},{"phoneNumber":"380500346915","name":"–í–∞–Ω—è"},{"phoneNumber":"380506474144","name":"–ú–∏—Ö–∞–∏–ª –í–∏–∫—Ç–æ—Ä–æ–≤–∏—á –ú–∏–∫—É–ª–µ—Ü—å"},{"phoneNumber":"380668151455","name":"–ê–Ω—è –î—é—Ä–∏–∫"},{"phoneNumber":"380660897887","name":"–°–≤—è—Ç–µ—Ü—å–∫–∞"},{"phoneNumber":"380509424567","name":"–Ø—Ä–æ–≤–∞ –õ –í"},{"phoneNumber":"380985836415","name":"–Ø–Ω–∞ –Ø–Ω—á–∏–π"},{"phoneNumber":"380991929256","name":"KseniaüçÄ"},{"phoneNumber":"380669017743","name":"–õ–∏–∑–∞"},{"phoneNumber":"380999810999","name":"–¢–∞–Ω—è"},{"phoneNumber":"380668211283","name":"Laura"},{"phoneNumber":"380965504090","name":"–ê–Ω–¥—Ä–µ–π –ö–µ–ø–∏—á"},{"phoneNumber":"380665304779","name":"–ê–Ω–¥—Ä—ñ—è–Ω–∞ –ö—É—Ö—Ç–∞ Admin"},{"phoneNumber":"380800216115","name":"–ø—Ä–µ–≤–µ–Ω—à–Ω"},{"phoneNumber":"380505504069","name":"–î—è–¥—è –í–æ–ª–æ–¥—è"},{"phoneNumber":"380992753020","name":"–ì—Ä–∏–Ω"},{"phoneNumber":"380501655512","name":"–î–µ–Ω–∏—Å –®—É—Ç–∫–æ"},{"phoneNumber":"380955735825","name":"–©–æ–º–∞–∫"},{"phoneNumber":"380632751033","name":"–ï–≤–∞ –ô–æ–∂–µ—Ñ–æ–≤–Ω–∞"},{"phoneNumber":"380633970317","name":"–í–∏–∫–∞"},{"phoneNumber":"380951228870","name":"–û—Ç–µ—Ü"},{"phoneNumber":"380312630680","name":"–ú–∞–º–∞ –†–∞–±–æ—Ç–∞"},{"phoneNumber":"380966508005","name":"–°–º—É—Ä—Ñ–∏–∫üå∏"},{"phoneNumber":"79155645329","name":"–ë—Ä–∞—Ç"},{"phoneNumber":"380684082532","name":"–ö—Ä—ë—Å—Ç–Ω–∞—è"},{"phoneNumber":"380961836440","name":"–°–∞—à–∞"},{"phoneNumber":"79155645322","name":"–¥–∞–Ω–∞"},{"phoneNumber":"380500400111","name":"Info Centr y Roumingu"},{"phoneNumber":"380665442115","name":"–ö—Å—é—à–∞ –•–æ–º–µ–Ω–∫–æ"},{"phoneNumber":"380668862687","name":"–ê–ª–µ—Å—è –†–∞–±–æ—Ç–∞"},{"phoneNumber":"380992853847","name":"–ö—Ä–∏—Å—Ç–∏–Ω–∞ –ò–≤–∞–Ω–æ–≤–Ω–∞"},{"phoneNumber":"380992930559","name":"–ê–ª–µ–∫—Å–µ–π –ú–æ—Ç–æ–≤–∏–ª–∏–Ω"},{"phoneNumber":"380504321771","name":"–ö–æ—á–µ–º–±–∞ –°–≤–µ—Ç–∞"},{"phoneNumber":"380989691440","name":"–û–ª–µ–∫—Å–∞–Ω–¥—Ä–∞"},{"phoneNumber":"380507221159","name":"–ù–∞—Å—Ç—è —Å—Ç—É–¥—Ä–∞–¥–∞"},{"phoneNumber":"380666972922","name":"–ê–Ω–∏—Ç–∞"},{"phoneNumber":"380508032923","name":"–õ–∏–∑–∞ –Ø–Ω–æ—à–∏–≤–Ω–∞"},{"phoneNumber":"79155711470","name":"–°–∏—Å—Ç–µ—Ä"},{"phoneNumber":"972548009165","name":"–º–∏—à–∞ —à–∏—Ä"},{"phoneNumber":"380953478985","name":"–ü—Ä–æ–∫–æ–ø–µ–Ω–∫–æ –†–∞–¥–∏–æ–Ω"},{"phoneNumber":"79859604204","name":"–®–æ–ª–∫–∏–Ω –ê–Ω–¥—Ä–µ–π"},{"phoneNumber":"380501423233","name":"–í–∞–ª—è"},{"phoneNumber":"380505132743","name":"–ò—Ä–∏—Å–∫–∞"},{"phoneNumber":"380664959097","name":"–Æ–ª–∏–∞–Ω–Ω–∞ –Æ—Ä–∏–µ–≤–Ω–∞"},{"phoneNumber":"380665191703","name":"–ê–Ω—è –ú–∏—Å—å"},{"phoneNumber":"380956235795","name":"–°–∞—à–∞ –°–∞–≤–µ–ª—å–µ–≤Ôºà–£–∫—Ä–∞–∏–Ω–∞Ôºâ"},{"phoneNumber":"380500776771","name":"–≠—Ä–∏–∫–∞ –ù–µ–º–µ—à"},{"phoneNumber":"380503729270","name":"–í–∏–∫—Ç–æ—Ä–∏—è –í–ª–∞–¥–∏–º–∏—Ä–æ–≤"},{"phoneNumber":"380509727521","name":"–ú–∞–º–∞ –ö—Å—é—à–∏"},{"phoneNumber":"380501604864","name":"–¢–µ—Ç—è –í–∏–∫–∞"},{"phoneNumber":"380953050397","name":"–ö—Ä–∏—Å—Ç–∏–Ω–∞ –ë—É—Ö–≥–∞–ª—Ç–µ—Ä"},{"phoneNumber":"380684075105","name":"–ú–∞–º–∞ –ù–∞—Å—Ç–∏"},{"phoneNumber":"380995358242","name":"–ù–∞—Å—Ç—è"},{"phoneNumber":"380501409323","name":"–í–∏–∑–∏—Ç –¢–∞–∫—Å–∏"},{"phoneNumber":"380997375069","name":"–•–∏–ª–µ–Ω–∞ –°—Ç–∞–Ω–∏—Å–ª–∞–≤–æ–≤–Ω–∞"},{"phoneNumber":"380990242198","name":"–®—é—Ç–∏–≤ –ú –ê"},{"phoneNumber":"380504321435","name":"–¢—ë—Ç—è –õ–µ—Å—è"},{"phoneNumber":"380501845607","name":"–ö–ª—é—á"},{"phoneNumber":"380688867664","name":"–ù–æ–≤—Ä–∞"},{"phoneNumber":"380999202186","name":"–ü–æ–º–∞–∑–∞–Ω–æ–≤–∞"},{"phoneNumber":"380504326727","name":"–ù–∞—Ç–∞—à–∞ –ó–º—É—à–∫–æ"},{"phoneNumber":"380956063546","name":"–®–æ–Ω–∏"},{"phoneNumber":"380661235940","name":"Rom4ik"},{"phoneNumber":"380956824433","name":"–ú–∞–º–∞ –ò—Ä—ã"},{"phoneNumber":"380956824434","name":"–ú—ñ–ª–∞ –ú–∞–º–∞ –ò—Ä—ã"},{"phoneNumber":"380507692734","name":"–û–ª–µ–∫—Å–∞–Ω–¥—Ä–∞ –ö–µ–ª–µ–º–µ—Ü—å"},{"phoneNumber":"380958942557","name":"–®–µ–≤—Ü–æ–≤–∞ –ò –ú"},{"phoneNumber":"48578495313","name":"–¢–∞–Ω—è –ú–æ—Å–∫–æ–≤–∞"},{"phoneNumber":"380507095965","name":"–¢–µ—Ç—è–Ω–∞ –ú–∞–º–∞ –õ–∏–∑—ã"},{"phoneNumber":"380953958155","name":"–ú–µ–ª—è"},{"phoneNumber":"380994888990","name":"–õ–∞—É–Ω–¥–∂ –ë–∞—Ä 51"},{"phoneNumber":"380506841667","name":"–ù–∞—Ç–∞–ª–∏—è"},{"phoneNumber":"380500754353","name":"–î–µ–Ω–∏—Å –ß–µ—á—ë—Ç–∫–∏–Ω"},{"phoneNumber":"380954498579","name":"–ö–∞—Ç—è –ü—Ä–æ—Ö–Ω–µ–Ω–∫–æ"},{"phoneNumber":"380955008110","name":"–õ–∏–∑–∞ –ß–µ—á—ë—Ç–∫–∏–Ω–∞"},{"phoneNumber":"380661501721","name":"–§–µ–¥—ñ—Ä –Æ–ª—ñ–π–æ–≤–∏—á"},{"phoneNumber":"79208985009","name":"–û–ª—è"},{"phoneNumber":"380660986640","name":"–õ—é–±–∞ –ü–µ–Ω–¥–ª–∏—à–∞–∫"},{"phoneNumber":"380974601935","name":"–ú–∞–º–∞ –ê–Ω–¥—Ä–µ—è"}]},"Sticker Market":{"stickersDownloads":[{"productId":"stickers.25600","phoneCountryCode":"UA","ip":"127.255.255.255","ipCountryCode":"UA","lastUpdateDate":"2016-03-20T17:21:25+00:00"}],"stickersPurchases":[],"stickersPromoRedemptions":[]},"Usage":{"LastUpdate":"2021-07-20T22:21:29.561+00:00","LastStickerBought":null,"LastStickerDownloaded":null,"NumberOfPublicAccountsFollowed":null,"NumberOfPublicAccountsSubscribedTo":3,"BlastsReceived":26,"LastChatExtensionMessageDate":"2019-03-27T14:30:21.975+00:00","LastShoppingKeyboardUsageDate":"2021-03-08T16:03:27.155+00:00","Gender":null,"DateOfBirth":"2000-11-14T00:00:00.000+00:00","Email":"dsolkina123@gmail.com","Devices":{"Desktop":{"LastLikeInGroup":null,"LastLikeInPublicChat":null,"LastAudioCallMade":null,"LastVideoCallMade":null,"Last1on1MessageSent":{"RegularMessage":null,"Photo":null,"PaidSticker":null,"FreeSticker":null,"Video":null,"PhotoWithDoodle":null,"Location":null,"PhotoOrVideoWithTimeBomb":null,"AudioPtt":null,"ShareContact":null,"DeleteMessage":null,"Url":null,"File":null,"FormattedMessage":null},"LastGroupMessageSent":{"RegularMessage":null,"Photo":null,"PaidSticker":null,"FreeSticker":null,"Video":null,"PhotoWithDoodle":null,"Location":null,"PhotoOrVideoWithTimeBomb":null,"AudioPtt":null,"ShareContact":null,"DeleteMessage":null,"Url":null,"File":null,"FormattedMessage":null},"PublicAccountMessage":{"ChatWithBot":null,"PublicChatView":null},"DeviceType":"Desktop","Deactivated":null},"MEIZU_M5":{"LastLikeInGroup":"2019-03-28T15:50:37.137+00:00","LastLikeInPublicChat":null,"LastAudioCallMade":"2019-08-24T08:35:33.214+00:00","LastVideoCallMade":"2018-12-17T15:41:52.961+00:00","Last1on1MessageSent":{"RegularMessage":"2019-08-24T08:36:06.633+00:00","Photo":"2019-07-24T16:12:32.419+00:00","PaidSticker":null,"FreeSticker":null,"Video":"2019-07-21T10:21:54.906+00:00","PhotoWithDoodle":null,"Location":null,"PhotoOrVideoWithTimeBomb":null,"AudioPtt":"2018-04-29T15:56:59.150+00:00","ShareContact":null,"DeleteMessage":"2019-07-22T05:40:14.137+00:00","Url":"2019-07-21T14:45:27.006+00:00","File":"2019-07-24T10:37:58.605+00:00","FormattedMessage":null},"LastGroupMessageSent":{"RegularMessage":"2019-08-10T16:07:21.175+00:00","Photo":"2019-03-27T17:41:16.076+00:00","PaidSticker":null,"FreeSticker":null,"Video":"2019-05-07T08:25:11.882+00:00","PhotoWithDoodle":null,"Location":null,"PhotoOrVideoWithTimeBomb":null,"AudioPtt":"2018-10-16T15:55:50.528+00:00","ShareContact":null,"DeleteMessage":"2019-05-07T08:23:38.309+00:00","Url":"2018-10-12T20:43:52.112+00:00","File":"2019-02-07T08:24:43.208+00:00","FormattedMessage":null},"PublicAccountMessage":{"ChatWithBot":"2018-12-04T12:49:03.975+00:00","PublicChatView":null},"AdvertisingID":"ae89bd29-eb53-416f-b3c3-2e19c6406abb","DeviceType":"MEIZU_M5","Deactivated":null},"Mi 9 SE":{"LastLikeInGroup":"2021-07-20T12:48:36.600+00:00","LastLikeInPublicChat":null,"LastAudioCallMade":"2021-07-19T09:46:22.430+00:00","LastVideoCallMade":"2021-07-19T09:45:56.763+00:00","Last1on1MessageSent":{"RegularMessage":"2021-07-20T17:07:00.074+00:00","Photo":"2021-06-21T05:42:11.674+00:00","PaidSticker":null,"FreeSticker":null,"Video":"2021-07-20T15:34:25.602+00:00","PhotoWithDoodle":null,"Location":null,"PhotoOrVideoWithTimeBomb":null,"AudioPtt":null,"ShareContact":"2020-11-10T09:20:30.428+00:00","DeleteMessage":"2021-07-14T08:50:10.547+00:00","Url":"2021-06-04T03:34:49.973+00:00","File":"2021-07-18T18:22:02.691+00:00","FormattedMessage":null},"LastGroupMessageSent":{"RegularMessage":"2021-07-19T23:51:47.918+00:00","Photo":"2021-07-16T05:02:10.043+00:00","PaidSticker":null,"FreeSticker":null,"Video":"2021-05-27T16:37:08.744+00:00","PhotoWithDoodle":null,"Location":null,"PhotoOrVideoWithTimeBomb":null,"AudioPtt":null,"ShareContact":null,"DeleteMessage":"2021-05-21T13:19:27.626+00:00","Url":"2021-07-16T05:02:06.980+00:00","File":"2021-06-21T17:08:47.272+00:00","FormattedMessage":null},"PublicAccountMessage":{"ChatWithBot":"2020-12-31T07:48:03.366+00:00","PublicChatView":null},"AdvertisingID":"4ba60dae-65d6-49d4-8e73-e24dbabefc87","DeviceType":"Mi 9 SE","Deactivated":null},"Desktop-2":{"LastLikeInGroup":null,"LastLikeInPublicChat":null,"LastAudioCallMade":null,"LastVideoCallMade":null,"Last1on1MessageSent":{"RegularMessage":null,"Photo":null,"PaidSticker":null,"FreeSticker":null,"Video":null,"PhotoWithDoodle":null,"Location":null,"PhotoOrVideoWithTimeBomb":null,"AudioPtt":null,"ShareContact":null,"DeleteMessage":null,"Url":null,"File":null,"FormattedMessage":null},"LastGroupMessageSent":{"RegularMessage":null,"Photo":null,"PaidSticker":null,"FreeSticker":null,"Video":null,"PhotoWithDoodle":null,"Location":null,"PhotoOrVideoWithTimeBomb":null,"AudioPtt":null,"ShareContact":null,"DeleteMessage":null,"Url":null,"File":null,"FormattedMessage":null},"PublicAccountMessage":{"ChatWithBot":null,"PublicChatView":null},"DeviceType":"Desktop","Deactivated":null},"Desktop-3":{"LastLikeInGroup":null,"LastLikeInPublicChat":null,"LastAudioCallMade":null,"LastVideoCallMade":null,"Last1on1MessageSent":{"RegularMessage":null,"Photo":null,"PaidSticker":null,"FreeSticker":null,"Video":null,"PhotoWithDoodle":null,"Location":null,"PhotoOrVideoWithTimeBomb":null,"AudioPtt":null,"ShareContact":null,"DeleteMessage":null,"Url":null,"File":null,"FormattedMessage":null},"LastGroupMessageSent":{"RegularMessage":null,"Photo":null,"PaidSticker":null,"FreeSticker":null,"Video":null,"PhotoWithDoodle":null,"Location":null,"PhotoOrVideoWithTimeBomb":null,"AudioPtt":null,"ShareContact":null,"DeleteMessage":null,"Url":null,"File":null,"FormattedMessage":null},"PublicAccountMessage":{"ChatWithBot":null,"PublicChatView":null},"DeviceType":"Desktop","Deactivated":false},"Desktop-4":{"LastLikeInGroup":null,"LastLikeInPublicChat":null,"LastAudioCallMade":null,"LastVideoCallMade":null,"Last1on1MessageSent":{"RegularMessage":null,"Photo":null,"PaidSticker":null,"FreeSticker":null,"Video":null,"PhotoWithDoodle":null,"Location":null,"PhotoOrVideoWithTimeBomb":null,"AudioPtt":null,"ShareContact":null,"DeleteMessage":null,"Url":null,"File":null,"FormattedMessage":null},"LastGroupMessageSent":{"RegularMessage":null,"Photo":null,"PaidSticker":null,"FreeSticker":null,"Video":null,"PhotoWithDoodle":null,"Location":null,"PhotoOrVideoWithTimeBomb":null,"AudioPtt":null,"ShareContact":null,"DeleteMessage":null,"Url":null,"File":null,"FormattedMessage":null},"PublicAccountMessage":{"ChatWithBot":null,"PublicChatView":null},"DeviceType":"Desktop","Deactivated":null}},"Favourites":[380980116287]},"Groups":{"bots":["–ó–æ—Ä—è–Ω–∞ - –ö–∏—ó–≤—Å—Ç–∞—Ä","comfy.ua","Purple Group"],"groups":[{"name":"N/A","members":17},{"name":"N/A","members":4},{"name":"N/A","members":3},{"name":"N/A","members":2},{"name":"N/A","members":10},{"name":"N/A","members":10},{"name":"N/A","members":4},{"name":"N/A","members":7},{"name":"N/A","members":27},{"name":"N/A","members":6},{"name":"N/A","members":5},{"name":"N/A","members":4},{"name":"N/A","members":19},{"name":"N/A","members":1},{"name":"N/A","members":4},{"name":"N/A","members":23},{"name":"N/A","members":18},{"name":"N/A","members":17},{"name":"N/A","members":8},{"name":"N/A","members":1},{"name":"N/A","members":6},{"name":"N/A","members":9},{"name":"N/A","members":5},{"name":"N/A","members":7},{"name":"N/A","members":13},{"name":"N/A","members":8},{"name":"N/A","members":10},{"name":"N/A","members":237},{"name":"N/A","members":24},{"name":"N/A","members":27},{"name":"N/A","members":11},{"name":"N/A","members":9},{"name":"N/A","members":8},{"name":"N/A","members":10},{"name":"N/A","members":5},{"name":"N/A","members":13},{"name":"N/A","members":13},{"name":"N/A","members":5},{"name":"N/A","members":33},{"name":"N/A","members":1},{"name":"N/A","members":6},{"name":"N/A","members":36},{"name":"N/A","members":106}],"communities":[{"name":"–¢—Ä–µ–Ω—ñüòÅ","role":"Administrator"},{"name":"Pub Houseüçª","role":"Member"},{"name":"–ì—Ä–∏–º3–∫—É—Ä—Å","role":"Member"},{"name":"–ö–£–ëüçïPizzaüç£Sushiü•©Grill","role":"Member"},{"name":"–Ü–Ü –°–ú –•–ú","role":"Member"}]},"Marketing":{"data":{"email_subscribe":"subscribed","language":"ru","time_zone":"Europe/Kiev","email":"dsolkina123@gmail.com","custom_attributes":{"activation date":"2018-11-02T08:11:48.000Z","community member":["–Ü–Ü –°–ú –•–ú","–ö–£–ëüçïPizzaüç£Sushiü•©Grill","–ì—Ä–∏–º3–∫—É—Ä—Å","Pub Houseüçª"],"mnc":"01","desktop user?":true,"home country":"UA","international sending destination":["RU"],"community admin":["–¢—Ä–µ–Ω—ñüòÅ"],"mcc":"255","international calling destinations":["RU","CZ"],"allow content personalization":true,"Viber lang":"Russian","country code":380,"free stickers ids":["143700","133600","40100","25600"],"paid stickers ids":["40100"]}}}}